{
  "type": "FeatureCollection",
  "features": [
    {
      "type": "Feature",
      "geometry": {
        "type": "Point",
        "coordinates": [-77.0260, 38.8913]
      },
      "properties": {
        "NAME": "Smithsonian National Museum of Natural History",
        "ADDRESS": "10th St. & Constitution Ave. NW, Washington, DC 20560",
        "DESCRIPTION": "The world's most visited natural history museum featuring dinosaur exhibits, gems, and cultural artifacts."
      }
    },
    {
      "type": "Feature",
      "geometry": {
        "type": "Point",
        "coordinates": [-77.0329, 38.8910]
      },
      "properties": {
        "NAME": "National Museum of African American History and Culture",
        "ADDRESS": "1400 Constitution Ave. NW, Washington, DC 20560",
        "DESCRIPTION": "The only national museum devoted exclusively to African American history and culture."
      }
    },
    {
      "type": "Feature",
      "geometry": {
        "type": "Point",
        "coordinates": [-77.0300, 38.8913]
      },
      "properties": {
        "NAME": "National Museum of American History",
        "ADDRESS": "1300 Constitution Ave. NW, Washington, DC 20560",
        "DESCRIPTION": "Explores American history through exhibitions on science, technology, culture, and the arts."
      }
    },
    {
      "type": "Feature",
      "geometry": {
        "type": "Point",
        "coordinates": [-77.0165, 38.8883]
      },
      "properties": {
        "NAME": "National Museum of the American Indian",
        "ADDRESS": "4th St. & Independence Ave. SW, Washington, DC 20560",
        "DESCRIPTION": "Dedicated to the life, languages, literature, history, and arts of Native Americans."
      }
    },
    {
      "type": "Feature",
      "geometry": {
        "type": "Point",
        "coordinates": [-77.0199, 38.8881]
      },
      "properties": {
        "NAME": "Smithsonian National Air and Space Museum",
        "ADDRESS": "600 Independence Ave. SW, Washington, DC 20560",
        "DESCRIPTION": "Houses the largest collection of historic aircraft and spacecraft in the world."
      }
    },
    {
      "type": "Feature",
      "geometry": {
        "type": "Point",
        "coordinates": [-77.0454, 38.9114]
      },
      "properties": {
        "NAME": "The Phillips Collection",
        "ADDRESS": "1600 21st St. NW, Washington, DC 20009",
        "DESCRIPTION": "America's first museum of modern art featuring Impressionist and American modern art."
      }
    },
    {
      "type": "Feature",
      "geometry": {
        "type": "Point",
        "coordinates": [-77.0286, 38.8974]
      },
      "properties": {
        "NAME": "National Museum of Women in the Arts",
        "ADDRESS": "1250 New York Ave. NW, Washington, DC 20005",
        "DESCRIPTION": "The only major museum in the world solely dedicated to celebrating women's achievements in the visual arts."
      }
    },
    {
      "type": "Feature",
      "geometry": {
        "type": "Point",
        "coordinates": [-77.0224, 38.8977]
      },
      "properties": {
        "NAME": "National Portrait Gallery",
        "ADDRESS": "8th St. & G Pl. NW, Washington, DC 20001",
        "DESCRIPTION": "Features portraits of notable Americans who have shaped U.S. history and culture."
      }
    },
    {
      "type": "Feature",
      "geometry": {
        "type": "Point",
        "coordinates": [-77.0474, 38.9101]
      },
      "properties": {
        "NAME": "National Geographic Museum",
        "ADDRESS": "1145 17th St. NW, Washington, DC 20036",
        "DESCRIPTION": "Explores the world through exhibitions on science, exploration, and culture."
      }
    },
    {
      "type": "Feature",
      "geometry": {
        "type": "Point",
        "coordinates": [-76.6172, 39.2904]
      },
      "properties": {
        "NAME": "Baltimore Museum of Art",
        "ADDRESS": "10 Art Museum Dr, Baltimore, MD 21218",
        "DESCRIPTION": "One of the largest art museums in the United States with a collection spanning from ancient mosaics to contemporary art."
      }
    },
    {
      "type": "Feature",
      "geometry": {
        "type": "Point",
        "coordinates": [-76.6208, 39.2972]
      },
      "properties": {
        "NAME": "Walters Art Museum",
        "ADDRESS": "600 N Charles St, Baltimore, MD 21201",
        "DESCRIPTION": "Features art from ancient Egypt to 19th-century Europe, including medieval armor and Renaissance paintings."
      }
    },
    {
      "type": "Feature",
      "geometry": {
        "type": "Point",
        "coordinates": [-76.6122, 39.2856]
      },
      "properties": {
        "NAME": "American Visionary Art Museum",
        "ADDRESS": "800 Key Hwy, Baltimore, MD 21230",
        "DESCRIPTION": "Dedicated to self-taught artists and visionary art, featuring unique and unconventional works."
      }
    },
    {
      "type": "Feature",
      "geometry": {
        "type": "Point",
        "coordinates": [-76.6200, 39.2833]
      },
      "properties": {
        "NAME": "National Aquarium",
        "ADDRESS": "501 E Pratt St, Baltimore, MD 21202",
        "DESCRIPTION": "One of the nation's premier aquariums featuring thousands of marine animals and exhibits."
      }
    },
    {
      "type": "Feature",
      "geometry": {
        "type": "Point",
        "coordinates": [-77.0431, 38.9989]
      },
      "properties": {
        "NAME": "Glenstone Museum",
        "ADDRESS": "12100 Glen Rd, Potomac, MD 20854",
        "DESCRIPTION": "A private contemporary art museum set on 230 acres of rolling hills and unspoiled woodland."
      }
    },
    {
      "type": "Feature",
      "geometry": {
        "type": "Point",
        "coordinates": [-77.0764, 38.9817]
      },
      "properties": {
        "NAME": "Strathmore",
        "ADDRESS": "5301 Tuckerman Ln, North Bethesda, MD 20852",
        "DESCRIPTION": "A multi-disciplinary arts center featuring concerts, exhibitions, and educational programs."
      }
    },
    {
      "type": "Feature",
      "geometry": {
        "type": "Point",
        "coordinates": [-77.4369, 38.8042]
      },
      "properties": {
        "NAME": "National Museum of the Marine Corps",
        "ADDRESS": "1775 Semper Fidelis Way, Triangle, VA 22172",
        "DESCRIPTION": "Honors the commitment, accomplishments, and sacrifices of Marines throughout history."
      }
    },
    {
      "type": "Feature",
      "geometry": {
        "type": "Point",
        "coordinates": [-77.0365, 38.8815]
      },
      "properties": {
        "NAME": "National Museum of African Art",
        "ADDRESS": "950 Independence Ave. SW, Washington, DC 20560",
        "DESCRIPTION": "The only national museum in the United States dedicated to the collection, exhibition, and study of African art."
      }
    },
    {
      "type": "Feature",
      "geometry": {
        "type": "Point",
        "coordinates": [-77.0253, 38.8881]
      },
      "properties": {
        "NAME": "Hirshhorn Museum and Sculpture Garden",
        "ADDRESS": "Independence Ave. SW & 7th St. SW, Washington, DC 20560",
        "DESCRIPTION": "The Smithsonian's museum of international modern and contemporary art, featuring a world-class sculpture garden."
      }
    },
    {
      "type": "Feature",
      "geometry": {
        "type": "Point",
        "coordinates": [-77.0525, 38.9073]
      },
      "properties": {
        "NAME": "International Spy Museum",
        "ADDRESS": "700 L'Enfant Plaza SW, Washington, DC 20024",
        "DESCRIPTION": "The world's premier collection of international espionage artifacts on public display."
      }
    },
    {
      "type": "Feature",
      "geometry": {
        "type": "Point",
        "coordinates": [-77.0214, 38.8974]
      },
      "properties": {
        "NAME": "National Building Museum",
        "ADDRESS": "401 F St. NW, Washington, DC 20001",
        "DESCRIPTION": "America's premier cultural institution dedicated to the history and impact of the built environment."
      }
    },
    {
      "type": "Feature",
      "geometry": {
        "type": "Point",
        "coordinates": [-77.0703, 38.9347]
      },
      "properties": {
        "NAME": "Hillwood Estate, Museum & Gardens",
        "ADDRESS": "4155 Linnean Ave. NW, Washington, DC 20008",
        "DESCRIPTION": "Former home of Marjorie Merriweather Post, featuring Russian imperial art and French decorative arts."
      }
    },
    {
      "type": "Feature",
      "geometry": {
        "type": "Point",
        "coordinates": [-77.0506, 38.9006]
      },
      "properties": {
        "NAME": "Renwick Gallery",
        "ADDRESS": "1661 Pennsylvania Ave. NW, Washington, DC 20006",
        "DESCRIPTION": "The Smithsonian's museum of American craft and decorative arts, featuring contemporary works."
      }
    },
    {
      "type": "Feature",
      "geometry": {
        "type": "Point",
        "coordinates": [-77.0639, 38.9131]
      },
      "properties": {
        "NAME": "Textile Museum",
        "ADDRESS": "701 21st St. NW, Washington, DC 20052",
        "DESCRIPTION": "Part of the George Washington University, featuring textiles and carpets from around the world."
      }
    },
    {
      "type": "Feature",
      "geometry": {
        "type": "Point",
        "coordinates": [-77.0369, 38.9072]
      },
      "properties": {
        "NAME": "National Museum of American Jewish Military History",
        "ADDRESS": "1811 R St. NW, Washington, DC 20009",
        "DESCRIPTION": "Documents and preserves the contributions of Jewish Americans to the peace and freedom of the United States."
      }
    },
    {
      "type": "Feature",
      "geometry": {
        "type": "Point",
        "coordinates": [-77.0442, 38.8978]
      },
      "properties": {
        "NAME": "DAR Museum",
        "ADDRESS": "1776 D St. NW, Washington, DC 20006",
        "DESCRIPTION": "Features American decorative arts from the 17th through the early 20th century."
      }
    },
    {
      "type": "Feature",
      "geometry": {
        "type": "Point",
        "coordinates": [-77.0708, 38.9056]
      },
      "properties": {
        "NAME": "Kreeger Museum",
        "ADDRESS": "2401 Foxhall Rd. NW, Washington, DC 20007",
        "DESCRIPTION": "A private art museum featuring 19th and 20th century paintings, sculptures, and African art."
      }
    },
    {
      "type": "Feature",
      "geometry": {
        "type": "Point",
        "coordinates": [-77.0217, 38.8961]
      },
      "properties": {
        "NAME": "Ford's Theatre",
        "ADDRESS": "511 10th St. NW, Washington, DC 20004",
        "DESCRIPTION": "Historic theater where President Abraham Lincoln was assassinated, now a working theater and museum."
      }
    },
    {
      "type": "Feature",
      "geometry": {
        "type": "Point",
        "coordinates": [-77.0097, 38.8897]
      },
      "properties": {
        "NAME": "United States Holocaust Memorial Museum",
        "ADDRESS": "100 Raoul Wallenberg Pl. SW, Washington, DC 20024",
        "DESCRIPTION": "A living memorial to the Holocaust, inspiring citizens and leaders worldwide to confront hatred and prevent genocide."
      }
    },
    {
      "type": "Feature",
      "geometry": {
        "type": "Point",
        "coordinates": [-77.0503, 38.8947]
      },
      "properties": {
        "NAME": "Newseum",
        "ADDRESS": "555 Pennsylvania Ave. NW, Washington, DC 20001",
        "DESCRIPTION": "Interactive museum of news and journalism, now closed but historically significant."
      }
    },
    {
      "type": "Feature",
      "geometry": {
        "type": "Point",
        "coordinates": [-77.0642, 38.8811]
      },
      "properties": {
        "NAME": "Arlington National Cemetery",
        "ADDRESS": "Arlington, VA 22211",
        "DESCRIPTION": "A military cemetery honoring those who have served the United States, including the Tomb of the Unknown Soldier."
      }
    },
    {
      "type": "Feature",
      "geometry": {
        "type": "Point",
        "coordinates": [-77.0553, 38.8042]
      },
      "properties": {
        "NAME": "Mount Vernon",
        "ADDRESS": "3200 Mount Vernon Memorial Hwy, Mount Vernon, VA 22121",
        "DESCRIPTION": "The historic home and estate of George Washington, the first President of the United States."
      }
    },
    {
      "type": "Feature",
      "geometry": {
        "type": "Point",
        "coordinates": [-77.0506, 38.8047]
      },
      "properties": {
        "NAME": "Woodlawn & Frank Lloyd Wright's Pope-Leighey House",
        "ADDRESS": "9000 Richmond Hwy, Alexandria, VA 22309",
        "DESCRIPTION": "Historic estate featuring a Frank Lloyd Wright-designed Usonian house and 19th-century mansion."
      }
    },
    {
      "type": "Feature",
      "geometry": {
        "type": "Point",
        "coordinates": [-77.0436, 38.8025]
      },
      "properties": {
        "NAME": "Gadsby's Tavern Museum",
        "ADDRESS": "134 N Royal St, Alexandria, VA 22314",
        "DESCRIPTION": "Historic tavern where George Washington and Thomas Jefferson dined, now a museum of 18th-century life."
      }
    },
    {
      "type": "Feature",
      "geometry": {
        "type": "Point",
        "coordinates": [-77.0408, 38.8014]
      },
      "properties": {
        "NAME": "Torpedo Factory Art Center",
        "ADDRESS": "105 N Union St, Alexandria, VA 22314",
        "DESCRIPTION": "Former torpedo factory now housing the largest collection of working artists' studios in the U.S."
      }
    },
    {
      "type": "Feature",
      "geometry": {
        "type": "Point",
        "coordinates": [-77.0361, 38.8008]
      },
      "properties": {
        "NAME": "Carlyle House Historic Park",
        "ADDRESS": "121 N Fairfax St, Alexandria, VA 22314",
        "DESCRIPTION": "18th-century Georgian mansion where General Braddock planned the French and Indian War campaign."
      }
    },
    {
      "type": "Feature",
      "geometry": {
        "type": "Point",
        "coordinates": [-77.0503, 38.8042]
      },
      "properties": {
        "NAME": "George Washington's Distillery & Gristmill",
        "ADDRESS": "5514 Mount Vernon Memorial Hwy, Alexandria, VA 22309",
        "DESCRIPTION": "Reconstructed 18th-century distillery and gristmill, part of the Mount Vernon estate."
      }
    }
  ]
}

